{
    "736": {
        "name": "Krispy Kreme Airport Kiosk",
        "latitude": -34.938281,
        "longitude": 138.537392,
        "address": "1 James Schofield Drive"
    },
    "921": {
        "name": "Krispy Kreme Elizabeth Kiosk",
        "latitude": -34.71816,
        "longitude": 138.6683,
        "address": "Kiosk SK05, Elizabeth City Centre, 50 Elizabeth Way"
    },
    "732": {
        "name": "Krispy Kreme James Place",
        "latitude": -34.924053,
        "longitude": 138.60083,
        "address": "28 Grenfell Street"
    },
    "733": {
        "name": "Krispy Kreme Marion Kiosk",
        "latitude": -35.017047,
        "longitude": 138.544101,
        "address": "297 Diagonal Rd Marion Shopping Centre"
    },
    "796": {
        "name": "Krispy Kreme Mount Gambier East",
        "latitude": -37.83467,
        "longitude": 140.8022,
        "address": "1-3 Ramsay Avenue"
    },
    "748": {
        "name": "Krispy Kreme Online",
        "latitude": -34.8937,
        "longitude": 138.5553,
        "address": "563 Port Road"
    },
    "734": {
        "name": "Krispy Kreme Port Wakefield Road",
        "latitude": -34.768007,
        "longitude": 138.592819,
        "address": "885 Port Wakefield Rd (Corner Port Wakefield Rd & Hodgson Road)"
    },
    "766": {
        "name": "Krispy Kreme Tea Tree Plaza Kiosk",
        "latitude": -34.831988,
        "longitude": 138.691639,
        "address": "Kiosk 11, Level 2, Westfield Tea Tree Plaza, 976 North East Road"
    },
    "730": {
        "name": "Krispy Kreme West Croydon",
        "latitude": -34.893784,
        "longitude": 138.555878,
        "address": "561 Port Road"
    },
    "946": {
        "name": "OTR Aberfoyle Park",
        "latitude": -35.074772,
        "longitude": 138.59046,
        "address": "7 Park Avenue"
    },
    "502": {
        "name": "OTR Alberton",
        "latitude": -34.859263,
        "longitude": 138.513321,
        "address": "156 Port Road"
    },
    "802": {
        "name": "OTR Aldinga",
        "latitude": -35.267649,
        "longitude": 138.485126,
        "address": "Main South Rd & Port Rd"
    },
    "113": {
        "name": "OTR Alphington",
        "latitude": -37.78034,
        "longitude": 145.0325,
        "address": "779-785 Heidelberg Road"
    },
    "509": {
        "name": "OTR Angle Park",
        "latitude": -34.855888,
        "longitude": 138.564636,
        "address": "610-612 South Road"
    },
    "803": {
        "name": "OTR Angle Vale",
        "latitude": -34.647813,
        "longitude": 138.643594,
        "address": "131-135 Heaslip Rd"
    },
    "501": {
        "name": "OTR Athelstone",
        "latitude": -34.87178,
        "longitude": 138.700195,
        "address": "310 Gorge Rd"
    },
    "750": {
        "name": "OTR Balhannah",
        "latitude": -34.98997,
        "longitude": 138.8273,
        "address": "93 Onkaparinga Valley Road"
    },
    "872": {
        "name": "OTR Belair",
        "latitude": -34.9982,
        "longitude": 138.622974,
        "address": "1 Main Road"
    },
    "887": {
        "name": "OTR Berri",
        "latitude": -34.272101,
        "longitude": 140.607209,
        "address": "1314 Old Sturt Highway"
    },
    "393": {
        "name": "OTR Berrimah Truck City",
        "latitude": -12.435191,
        "longitude": 130.923813,
        "address": "3921 Berrimah Rd"
    },
    "442": {
        "name": "OTR Berrimah Wishart Road",
        "latitude": -12.46033,
        "longitude": 130.9252,
        "address": "5 Wishart Rd\n"
    },
    "507": {
        "name": "OTR Blackwood",
        "latitude": -35.016891,
        "longitude": 138.616806,
        "address": "202 Main Road"
    },
    "527": {
        "name": "OTR Blair Athol",
        "latitude": -34.861557,
        "longitude": 138.60083,
        "address": "402-404 Main North Rd"
    },
    "600": {
        "name": "OTR Boolaroo",
        "latitude": -32.94011,
        "longitude": 151.6363,
        "address": "106 Munibung Rd"
    },
    "835": {
        "name": "OTR Bordertown",
        "latitude": -36.297858,
        "longitude": 140.757295,
        "address": "1 Dukes Highway"
    },
    "505": {
        "name": "OTR Brighton",
        "latitude": -35.019585,
        "longitude": 138.523407,
        "address": "480-484 Brighton Rd"
    },
    "504": {
        "name": "OTR Broadview",
        "latitude": -34.868656,
        "longitude": 138.618713,
        "address": "150 Hampstead Road"
    },
    "124": {
        "name": "OTR Broken Hill South",
        "latitude": -31.98095,
        "longitude": 141.45909,
        "address": "90-98 Patton Street"
    },
    "851": {
        "name": "OTR Brompton",
        "latitude": -34.895504,
        "longitude": 138.581554,
        "address": "73-77 Torrens Rd"
    },
    "537": {
        "name": "OTR Cavan Inbound",
        "latitude": -34.830299,
        "longitude": 138.599243,
        "address": "144 Port Wakefield Rd "
    },
    "897": {
        "name": "OTR Cavan Outbound Drive Thru",
        "latitude": -34.832848,
        "longitude": 138.598609,
        "address": "113\u2013117 Port Wakefield Road"
    },
    "839": {
        "name": "OTR Ceduna",
        "latitude": -32.114215,
        "longitude": 133.672602,
        "address": "35 Eyre Highway "
    },
    "387": {
        "name": "OTR Ceduna Mozies",
        "latitude": -32.12168,
        "longitude": 133.6871,
        "address": "57 McKenzie Street\n CEDUNA SA 5690\nAUS"
    },
    "810": {
        "name": "OTR Christies Beach Dyson Road",
        "latitude": -35.129766,
        "longitude": 138.485466,
        "address": "159 Dyson Rd"
    },
    "511": {
        "name": "OTR Christies Beach Gulfview Road",
        "latitude": -35.130745,
        "longitude": 138.475037,
        "address": "35 Gulf View Rd"
    },
    "510": {
        "name": "OTR Christies Beach on Beach Road",
        "latitude": -35.138954,
        "longitude": 138.484451,
        "address": "124 Beach Road"
    },
    "852": {
        "name": "OTR Clare",
        "latitude": -33.836431,
        "longitude": 138.614261,
        "address": "186 Main North Road"
    },
    "516": {
        "name": "OTR Clarence Park",
        "latitude": -34.966049,
        "longitude": 138.590546,
        "address": "340-346 Goodwood Road"
    },
    "943": {
        "name": "OTR Como",
        "latitude": -32.01208,
        "longitude": 115.8645,
        "address": "73 Manning Road"
    },
    "920": {
        "name": "OTR Croydon Park",
        "latitude": -34.87532,
        "longitude": 138.5727,
        "address": "207-209 Regency Road"
    },
    "513": {
        "name": "OTR Darlington",
        "latitude": -35.025066,
        "longitude": 138.560883,
        "address": "1487-1489 South Road"
    },
    "536": {
        "name": "OTR Davoren Park",
        "latitude": -34.697632,
        "longitude": 138.665894,
        "address": "41 Peachy Road"
    },
    "598": {
        "name": "OTR Dernancourt",
        "latitude": -34.862797,
        "longitude": 138.680725,
        "address": "819 Lower North East Rd"
    },
    "584": {
        "name": "OTR Dry Creek",
        "latitude": -34.819618,
        "longitude": 138.591965,
        "address": "Corner Kidman and Vater Street"
    },
    "519": {
        "name": "OTR Elizabeth",
        "latitude": -34.722763,
        "longitude": 138.668839,
        "address": "17-21 Philip Highway"
    },
    "514": {
        "name": "OTR Elizabeth Drive Thru",
        "latitude": -34.721267,
        "longitude": 138.667465,
        "address": "11 Elizabeth Way"
    },
    "805": {
        "name": "OTR Elizabeth South",
        "latitude": -34.7533,
        "longitude": 138.649536,
        "address": "John Rice Av & Commercial Rd"
    },
    "520": {
        "name": "OTR Erindale",
        "latitude": -34.926016,
        "longitude": 138.663541,
        "address": "372 Kensington Road"
    },
    "518": {
        "name": "OTR Evandale",
        "latitude": -34.903961,
        "longitude": 138.639526,
        "address": "87-91 Portrush Road"
    },
    "806": {
        "name": "OTR Evanston",
        "latitude": -34.6226,
        "longitude": 138.7392,
        "address": "496 Main North Rd & Potts Rd"
    },
    "918": {
        "name": "OTR Evanston Gardens",
        "latitude": -34.623006,
        "longitude": 138.723132,
        "address": "35 Angle Vale Rd "
    },
    "397": {
        "name": "OTR Fannie Bay",
        "latitude": -12.42482,
        "longitude": 130.8391,
        "address": "88 Ross Smith Ave"
    },
    "524": {
        "name": "OTR Flinders Park",
        "latitude": -34.904682,
        "longitude": 138.551529,
        "address": "148 Grange Road"
    },
    "158": {
        "name": "OTR Frankston Flinders Road",
        "latitude": -38.15512,
        "longitude": 145.1337,
        "address": "38 Frankston- Flinders Rd\n"
    },
    "521": {
        "name": "OTR Fulham",
        "latitude": -34.926074,
        "longitude": 138.517993,
        "address": "510 Henley Beach Road"
    },
    "522": {
        "name": "OTR Fulham Gardens Drive Thru",
        "latitude": -34.915739,
        "longitude": 138.512967,
        "address": "471-473 Tapleys Hill Road"
    },
    "896": {
        "name": "OTR Fullarton",
        "latitude": -34.956545,
        "longitude": 138.626214,
        "address": "390 Fullarton Road"
    },
    "922": {
        "name": "OTR Gepps Cross",
        "latitude": -34.8475,
        "longitude": 138.5964,
        "address": "591 Grand Junction Road"
    },
    "523": {
        "name": "OTR Glandore",
        "latitude": -34.955189,
        "longitude": 138.56893,
        "address": "130-136 Anzac Highway"
    },
    "807": {
        "name": "OTR Glen Osmond",
        "latitude": -34.962759,
        "longitude": 138.643778,
        "address": "411 Glen Osmond Rd"
    },
    "874": {
        "name": "OTR Glenelg East",
        "latitude": -34.985432,
        "longitude": 138.520657,
        "address": "66-70 Brighton Road"
    },
    "831": {
        "name": "OTR Glengowrie",
        "latitude": -34.996534,
        "longitude": 138.530644,
        "address": "80 Oaklands Road"
    },
    "808": {
        "name": "OTR Glenside",
        "latitude": -34.939719,
        "longitude": 138.633618,
        "address": "282 Greenhill Rd & Conyngham St"
    },
    "875": {
        "name": "OTR Glenunga",
        "latitude": -34.95272,
        "longitude": 138.6355,
        "address": "303 Glen Osmond Road "
    },
    "876": {
        "name": "OTR Golden Grove",
        "latitude": -34.793262,
        "longitude": 138.692144,
        "address": "Crn Helicon Dr & the Golden Way"
    },
    "719": {
        "name": "OTR Gouger Street",
        "latitude": -34.92991,
        "longitude": 138.5964,
        "address": "76 Gouger Street"
    },
    "809": {
        "name": "OTR Greenacres",
        "latitude": -34.87048,
        "longitude": 138.6376,
        "address": "325 North East Road"
    },
    "891": {
        "name": "OTR Greystanes",
        "latitude": -33.82936,
        "longitude": 150.9527,
        "address": "661 Merrylands Road\n"
    },
    "156": {
        "name": "OTR Hackney",
        "latitude": -34.91834,
        "longitude": 138.6152,
        "address": "11-15 Hackney Road\n"
    },
    "924": {
        "name": "OTR Hamilton",
        "latitude": -37.735894,
        "longitude": 142.013966,
        "address": "86-90 Coleraine Road"
    },
    "666": {
        "name": "OTR Hamilton Tudor Street",
        "latitude": -32.92423,
        "longitude": 151.7499,
        "address": "56 Tudor St"
    },
    "811": {
        "name": "OTR Harbourtown Drive Thru",
        "latitude": -34.944664,
        "longitude": 138.517646,
        "address": "Tapleys Hill Rd & West Beach Rd"
    },
    "529": {
        "name": "OTR Hazelwood Park",
        "latitude": -34.933189,
        "longitude": 138.659531,
        "address": "465 Glynburn Road"
    },
    "812": {
        "name": "OTR Hillbank",
        "latitude": -34.742435,
        "longitude": 138.676636,
        "address": "Lot 92 Main North Rd"
    },
    "530": {
        "name": "OTR Hillcrest",
        "latitude": -34.864788,
        "longitude": 138.645309,
        "address": "431 North East Road"
    },
    "532": {
        "name": "OTR Hilton",
        "latitude": -34.93214,
        "longitude": 138.569153,
        "address": "79-81 Sir Donald Bradman Dve"
    },
    "562": {
        "name": "OTR Holden Hill North",
        "latitude": -34.846176,
        "longitude": 138.670746,
        "address": "742 North East Road"
    },
    "813": {
        "name": "OTR Holden Hill South Cnr Tarton Road",
        "latitude": -34.852872,
        "longitude": 138.665131,
        "address": "660 North East Rd & Tarton Rd"
    },
    "478": {
        "name": "OTR Hope Valley",
        "latitude": -34.843513,
        "longitude": 138.701416,
        "address": "1230 Grand Junction Road & Valley Road"
    },
    "722": {
        "name": "OTR Horsham Dimboola Road",
        "latitude": -36.71003,
        "longitude": 142.196,
        "address": "20 Dimboola Road"
    },
    "751": {
        "name": "OTR Horsham Wilson Street",
        "latitude": -36.71694,
        "longitude": 142.1969,
        "address": "95 Wilson Street"
    },
    "873": {
        "name": "OTR Irymple",
        "latitude": -34.231421,
        "longitude": 142.165298,
        "address": "2090 Fifteenth Street"
    },
    "861": {
        "name": "OTR Kadina",
        "latitude": -33.964519,
        "longitude": 137.713666,
        "address": "19 Frances Tce"
    },
    "862": {
        "name": "OTR Kapunda",
        "latitude": -34.339107,
        "longitude": 138.917097,
        "address": "1 Mildred Street"
    },
    "390": {
        "name": "OTR Katherine",
        "latitude": -14.470535,
        "longitude": 132.274719,
        "address": "85 Bicentennial Rd\n"
    },
    "117": {
        "name": "OTR Keilor Park",
        "latitude": -37.72516,
        "longitude": 144.8519,
        "address": "614 Fullarton Road\n"
    },
    "582": {
        "name": "OTR Kensington",
        "latitude": -34.921021,
        "longitude": 138.643433,
        "address": "294 The Parade"
    },
    "815": {
        "name": "OTR Kent Town",
        "latitude": -34.915754,
        "longitude": 138.622695,
        "address": "1 Fullarton Rd & North Tce"
    },
    "541": {
        "name": "OTR Kilburn",
        "latitude": -34.859711,
        "longitude": 138.583298,
        "address": "427 Churchill Rd"
    },
    "758": {
        "name": "OTR Kingscote",
        "latitude": -35.653014,
        "longitude": 137.638723,
        "address": "8 Telegraph Road"
    },
    "483": {
        "name": "OTR Kingsford",
        "latitude": -33.9249,
        "longitude": 151.2258,
        "address": "48-56 Gardeners Road"
    },
    "863": {
        "name": "OTR Kingston SE",
        "latitude": -36.82566,
        "longitude": 139.8619,
        "address": "1 Princess Highway"
    },
    "816": {
        "name": "OTR Kingswood",
        "latitude": -34.96579,
        "longitude": 138.608795,
        "address": "1 Belair Rd & Cross Rd"
    },
    "436": {
        "name": "OTR Knuckey Lagoon",
        "latitude": -12.43352,
        "longitude": 130.9251,
        "address": "687 Stuart Hwy"
    },
    "911": {
        "name": "OTR Lane Cove",
        "latitude": -33.81719,
        "longitude": 151.1519,
        "address": "254 Burns Bay Road"
    },
    "846": {
        "name": "OTR Largs Bay Military Road",
        "latitude": -34.830734,
        "longitude": 138.48764,
        "address": "354 Military Rd"
    },
    "817": {
        "name": "OTR Largs Bay Victoria Road",
        "latitude": -34.825455,
        "longitude": 138.500336,
        "address": "208-210 Victoria Rd & Jetty Rd"
    },
    "540": {
        "name": "OTR Linden Park",
        "latitude": -34.939107,
        "longitude": 138.650379,
        "address": "460-462 Greenhill Road"
    },
    "834": {
        "name": "OTR Littlehampton",
        "latitude": -35.04809,
        "longitude": 138.8662,
        "address": "81 Princes Highway"
    },
    "864": {
        "name": "OTR Loxton French Road",
        "latitude": -34.427572,
        "longitude": 140.594006,
        "address": "French Road"
    },
    "865": {
        "name": "OTR Loxton Roundabout",
        "latitude": -34.452532,
        "longitude": 140.570029,
        "address": "52 Bookpurnong Terrace"
    },
    "866": {
        "name": "OTR Mannum",
        "latitude": -34.915,
        "longitude": 139.3025,
        "address": "50 Adelaide Road"
    },
    "818": {
        "name": "OTR Marion",
        "latitude": -35.006367,
        "longitude": 138.557915,
        "address": "754 Marion Rd & Finniss St"
    },
    "754": {
        "name": "OTR Marryatville",
        "latitude": -34.92618,
        "longitude": 138.6523,
        "address": "287 Kensington Road"
    },
    "857": {
        "name": "OTR Mawson Lakes",
        "latitude": -34.805984,
        "longitude": 138.615616,
        "address": "7-9 Central Link"
    },
    "842": {
        "name": "OTR Mildura",
        "latitude": -34.20611,
        "longitude": 142.1366,
        "address": "463-469 Deakin Avenue"
    },
    "547": {
        "name": "OTR Mile End Drive Thru",
        "latitude": -34.926495,
        "longitude": 138.570145,
        "address": "195 South Road"
    },
    "879": {
        "name": "OTR Mitchell Park",
        "latitude": -35.002631,
        "longitude": 138.558058,
        "address": "843-847  Marion Road"
    },
    "880": {
        "name": "OTR Modbury",
        "latitude": -34.834125,
        "longitude": 138.681967,
        "address": "931 North East Road"
    },
    "974": {
        "name": "OTR Moonee Ponds",
        "latitude": -37.7585,
        "longitude": 144.9261,
        "address": "181-187 Pascoe Vale Road"
    },
    "886": {
        "name": "OTR Morphett Vale Inbound",
        "latitude": -35.124337,
        "longitude": 138.522976,
        "address": "131 Main South Road "
    },
    "819": {
        "name": "OTR Morphett Vale Outbound",
        "latitude": -35.123334,
        "longitude": 138.523305,
        "address": "140 Main South Rd"
    },
    "847": {
        "name": "OTR Motorsport Park",
        "latitude": -35.303656,
        "longitude": 139.500845,
        "address": "543 Dukes Highway, Tailem Bend"
    },
    "938": {
        "name": "OTR MOTR Club",
        "latitude": -34.92141,
        "longitude": 138.6416,
        "address": "270 The Parade"
    },
    "592": {
        "name": "OTR Mount Barker Adelaide Road",
        "latitude": -35.06687,
        "longitude": 138.8567,
        "address": "18-24 Adelaide Rd"
    },
    "836": {
        "name": "OTR Mount Barker Knott Street",
        "latitude": -35.070305,
        "longitude": 138.863037,
        "address": "18 Knott Street"
    },
    "894": {
        "name": "OTR Mount Gambier",
        "latitude": -37.825288,
        "longitude": 140.782045,
        "address": "29 Penola Rd"
    },
    "919": {
        "name": "OTR Mount Gambier East",
        "latitude": -37.83467,
        "longitude": 140.8022,
        "address": "1-3 Ramsay Ave"
    },
    "881": {
        "name": "OTR Munno Para",
        "latitude": -34.680084,
        "longitude": 138.69523,
        "address": "43 - 45 Main North Road "
    },
    "890": {
        "name": "OTR Munno Para West",
        "latitude": -34.672389,
        "longitude": 138.681394,
        "address": "248 Curtis Rd "
    },
    "840": {
        "name": "OTR Murray Bridge Adelaide Road",
        "latitude": -35.128955,
        "longitude": 139.250687,
        "address": "177-181 Adelaide Road"
    },
    "752": {
        "name": "OTR Murray Bridge Eastside",
        "latitude": -35.11253,
        "longitude": 139.2958,
        "address": "61-65 Old Princes Highway"
    },
    "972": {
        "name": "OTR Murray Bridge Swanport Road",
        "latitude": -35.13487,
        "longitude": 139.282,
        "address": "159 Swanport Road"
    },
    "764": {
        "name": "OTR Murray View",
        "latitude": -35.26565,
        "longitude": 139.4575,
        "address": "10 Princess Highway"
    },
    "717": {
        "name": "OTR Naracoorte",
        "latitude": -36.959053,
        "longitude": 140.731686,
        "address": "1 Deviation Road"
    },
    "559": {
        "name": "OTR Newton",
        "latitude": -34.876461,
        "longitude": 138.673691,
        "address": "72 Gorge Road"
    },
    "581": {
        "name": "OTR North Terrace",
        "latitude": -34.92178,
        "longitude": 138.598053,
        "address": "144 North Terrace "
    },
    "578": {
        "name": "OTR Norwood",
        "latitude": -34.921684,
        "longitude": 138.630112,
        "address": "76 The Parade"
    },
    "868": {
        "name": "OTR Nuriootpa",
        "latitude": -34.476003,
        "longitude": 138.994946,
        "address": "Cnr Tanunda & New Roads"
    },
    "882": {
        "name": "OTR O'Halloran Hill",
        "latitude": -35.071037,
        "longitude": 138.55462,
        "address": "131 Main South Road"
    },
    "755": {
        "name": "OTR Old Noarlunga",
        "latitude": -35.182665,
        "longitude": 138.493681,
        "address": "617-641 Main South Road"
    },
    "542": {
        "name": "OTR Old Reynella",
        "latitude": -35.096178,
        "longitude": 138.536291,
        "address": "133 Old South Road"
    },
    "821": {
        "name": "OTR Para Hills",
        "latitude": -34.813988,
        "longitude": 138.643204,
        "address": "321 Bridge Rd"
    },
    "845": {
        "name": "OTR Para Hills West",
        "latitude": -34.801129,
        "longitude": 138.638769,
        "address": "Cnr Main North & Kesters Rd"
    },
    "822": {
        "name": "OTR Parafield",
        "latitude": -34.79111,
        "longitude": 138.64592,
        "address": "Kings Rd & Lawerence Hargrave Wy"
    },
    "936": {
        "name": "OTR Parafield Gardens",
        "latitude": -34.780734,
        "longitude": 138.608771,
        "address": "225-241 Martins Road"
    },
    "883": {
        "name": "OTR Paralowie",
        "latitude": -34.762287,
        "longitude": 138.593217,
        "address": "926-936 Port Wakefield Road"
    },
    "560": {
        "name": "OTR Pasadena",
        "latitude": -35.0009,
        "longitude": 138.591202,
        "address": "14 Fiveash Road"
    },
    "910": {
        "name": "OTR Perth Pier Street",
        "latitude": -31.94422,
        "longitude": 115.8691,
        "address": "17-19 Brisbane Street"
    },
    "718": {
        "name": "OTR Peterhead",
        "latitude": -34.832452,
        "longitude": 138.500962,
        "address": "107-115 Victoria Road"
    },
    "869": {
        "name": "OTR Pinnaroo",
        "latitude": -35.260367,
        "longitude": 140.913862,
        "address": "6-8 Mallee Highway"
    },
    "566": {
        "name": "OTR Plympton",
        "latitude": -34.963325,
        "longitude": 138.555134,
        "address": "279 Anzac Highway"
    },
    "506": {
        "name": "OTR Pooraka",
        "latitude": -34.828224,
        "longitude": 138.631897,
        "address": "126 Bridge Road"
    },
    "720": {
        "name": "OTR Port Augusta",
        "latitude": -32.511619,
        "longitude": 137.802588,
        "address": "20235 Augusta Highway"
    },
    "767": {
        "name": "OTR Port Augusta West",
        "latitude": -32.483737,
        "longitude": 137.75936,
        "address": "2 - 4 Eyre Highway"
    },
    "853": {
        "name": "OTR Port Lincoln",
        "latitude": -34.722775,
        "longitude": 135.865674,
        "address": "22 King Street"
    },
    "933": {
        "name": "OTR Port Lincoln Hallett Place",
        "latitude": -34.72003,
        "longitude": 135.8557,
        "address": "20-26 Hallett Place"
    },
    "870": {
        "name": "OTR Port Pirie South",
        "latitude": -33.198525,
        "longitude": 137.997479,
        "address": "328 Senate Road"
    },
    "916": {
        "name": "OTR Port Wakefield",
        "latitude": -34.18098,
        "longitude": 138.1541,
        "address": "22 Snowtown Road"
    },
    "859": {
        "name": "OTR Port Wakefield Road",
        "latitude": -34.768951,
        "longitude": 138.59313,
        "address": "885 Port Wakefield Rd (Corner Port Wakefield Rd & Hodgson Road)"
    },
    "763": {
        "name": "OTR Portland",
        "latitude": -38.34171,
        "longitude": 141.6042,
        "address": "142 Percy Street"
    },
    "157": {
        "name": "OTR Prestons",
        "latitude": -33.93909,
        "longitude": 150.8685,
        "address": "1 - 5 Yato Rd"
    },
    "884": {
        "name": "OTR Prospect",
        "latitude": -34.890736,
        "longitude": 138.594217,
        "address": "68-72  Prospect Road"
    },
    "801": {
        "name": "OTR Pulteney Street",
        "latitude": -34.93039,
        "longitude": 138.605729,
        "address": "139 Angas St & Pulteney St"
    },
    "889": {
        "name": "OTR Renmark",
        "latitude": -34.181034,
        "longitude": 140.736878,
        "address": "292 Renmark Ave"
    },
    "512": {
        "name": "OTR Ridleyton",
        "latitude": -34.889824,
        "longitude": 138.569992,
        "address": "233 South Road"
    },
    "973": {
        "name": "OTR Roleystone",
        "latitude": -32.11583,
        "longitude": 116.0833,
        "address": "770 Brookton Highway"
    },
    "572": {
        "name": "OTR Rosewater",
        "latitude": -34.851273,
        "longitude": 138.524673,
        "address": "125 Grand Junction Road"
    },
    "561": {
        "name": "OTR Salisbury Commercial Road",
        "latitude": -34.761338,
        "longitude": 138.649725,
        "address": "55 Commercial Road"
    },
    "823": {
        "name": "OTR Salisbury Downs",
        "latitude": -34.779239,
        "longitude": 138.626952,
        "address": "328 Salisbury Highway"
    },
    "573": {
        "name": "OTR Salisbury Drive Thru",
        "latitude": -34.767056,
        "longitude": 138.637703,
        "address": "138 Salisbury Highway"
    },
    "937": {
        "name": "OTR Salisbury North",
        "latitude": -34.75665,
        "longitude": 138.6319,
        "address": "102 Waterloo Corner Road"
    },
    "575": {
        "name": "OTR Salisbury Parabanks",
        "latitude": -34.764599,
        "longitude": 138.639832,
        "address": "106-110 Salisbury Highway"
    },
    "885": {
        "name": "OTR Salisbury Park Terrace",
        "latitude": -34.768669,
        "longitude": 138.651074,
        "address": "105 Park Terrace"
    },
    "824": {
        "name": "OTR Seaford",
        "latitude": -35.188324,
        "longitude": 138.477737,
        "address": "112 Commercial Rd"
    },
    "577": {
        "name": "OTR Seaton",
        "latitude": -34.901997,
        "longitude": 138.514206,
        "address": "356 Tapleys Hill Road"
    },
    "830": {
        "name": "OTR Seaview Downs",
        "latitude": -35.029858,
        "longitude": 138.533676,
        "address": "216 Seacombe Rd "
    },
    "825": {
        "name": "OTR Sheidow Park",
        "latitude": -35.075141,
        "longitude": 138.522256,
        "address": "2 Commercial Road"
    },
    "576": {
        "name": "OTR Smithfield",
        "latitude": -34.681683,
        "longitude": 138.694199,
        "address": "23-29 Main North Road"
    },
    "552": {
        "name": "OTR South Plympton Drive Thru",
        "latitude": -34.973464,
        "longitude": 138.555794,
        "address": "503 Marion Road"
    },
    "155": {
        "name": "OTR St Kilda Marina",
        "latitude": -37.87587,
        "longitude": 144.9766,
        "address": "54a Marine Parade St Kilda Marina"
    },
    "580": {
        "name": "OTR St Marys",
        "latitude": -34.997623,
        "longitude": 138.575577,
        "address": "1175-1181 South Rd"
    },
    "756": {
        "name": "OTR Stawell",
        "latitude": -37.07257,
        "longitude": 142.7726,
        "address": "34 Ararat Road"
    },
    "579": {
        "name": "OTR Stepney",
        "latitude": -34.910187,
        "longitude": 138.627487,
        "address": "90-92 Payneham Road"
    },
    "474": {
        "name": "OTR Strathfield",
        "latitude": -33.87067,
        "longitude": 151.092453,
        "address": "9 Albert Road"
    },
    "761": {
        "name": "OTR Super Sprint Store",
        "latitude": -35.309881,
        "longitude": 139.509857,
        "address": "543 Dukes Hwy"
    },
    "893": {
        "name": "OTR Surrey Downs",
        "latitude": -34.804929,
        "longitude": 138.702324,
        "address": "665 Golden Grove Rd"
    },
    "878": {
        "name": "OTR Thorngate",
        "latitude": -34.896426,
        "longitude": 138.59954,
        "address": "20A Main North Road"
    },
    "583": {
        "name": "OTR Tranmere",
        "latitude": -34.902508,
        "longitude": 138.657654,
        "address": "172-176 Glynburn Road"
    },
    "877": {
        "name": "OTR Trinity Gardens",
        "latitude": -34.914428,
        "longitude": 138.640827,
        "address": "257 Magill Road"
    },
    "871": {
        "name": "OTR Two Wells",
        "latitude": -34.609545,
        "longitude": 138.528972,
        "address": "Old Port Wakefield Rd"
    },
    "828": {
        "name": "OTR Underdale",
        "latitude": -34.924519,
        "longitude": 138.549408,
        "address": "282 Henley Beach Rd & Holbrooks Rd"
    },
    "535": {
        "name": "OTR Unley",
        "latitude": -34.942905,
        "longitude": 138.600211,
        "address": "17 King William Road"
    },
    "856": {
        "name": "OTR Victor Harbor",
        "latitude": -35.536886,
        "longitude": 138.639476,
        "address": "310 Port Elliot Rd "
    },
    "131": {
        "name": "OTR Virginia",
        "latitude": -34.670577,
        "longitude": 138.562049,
        "address": "Lot 37 Old Port Wakefield Rd"
    },
    "757": {
        "name": "OTR Walkerville",
        "latitude": -34.88863,
        "longitude": 138.6148,
        "address": "68-72 North East Road"
    },
    "593": {
        "name": "OTR Wayville",
        "latitude": -34.946548,
        "longitude": 138.589554,
        "address": "51 Goodwood Road"
    },
    "591": {
        "name": "OTR West Beach",
        "latitude": -34.937351,
        "longitude": 138.501541,
        "address": "89 Military Road"
    },
    "888": {
        "name": "OTR West Croydon",
        "latitude": -34.893594,
        "longitude": 138.5556,
        "address": "561-567 Port Rd"
    },
    "594": {
        "name": "OTR West Terrace",
        "latitude": -34.925243,
        "longitude": 138.587921,
        "address": "41-49 West Terrace"
    },
    "137": {
        "name": "OTR West Wodonga",
        "latitude": -36.11294,
        "longitude": 146.8576,
        "address": "5 Moorefield Park Drive\n"
    },
    "867": {
        "name": "OTR Whyalla McRitchie",
        "latitude": -33.02017,
        "longitude": 137.526,
        "address": "21 -23 McRitchie Crescent"
    },
    "749": {
        "name": "OTR Whyalla Playford",
        "latitude": -33.029833,
        "longitude": 137.568287,
        "address": "48-50 Playford Avenue"
    },
    "138": {
        "name": "OTR Wodonga High Street",
        "latitude": -36.11227,
        "longitude": 146.8936,
        "address": "10-12 High Street"
    },
    "596": {
        "name": "OTR Woodville Park David Terrace",
        "latitude": -34.88105,
        "longitude": 138.54988,
        "address": "81 David Tce"
    },
    "563": {
        "name": "OTR Woodville Park Drive Thru",
        "latitude": -34.884858,
        "longitude": 138.542547,
        "address": "701 Port Road"
    },
    "768": {
        "name": "OTR Woodville South",
        "latitude": -34.8848,
        "longitude": 138.5314,
        "address": "1-3 Woodville Road"
    },
    "595": {
        "name": "OTR Woodville West",
        "latitude": -34.877167,
        "longitude": 138.529114,
        "address": "938 - 942 Port Road"
    },
    "162": {
        "name": "OTR Yangebup",
        "latitude": -32.11936,
        "longitude": 115.7943,
        "address": "71 Shallcross Street"
    },
    "778": {
        "name": "Subway Mawson Lakes Boulevard",
        "latitude": -34.81103,
        "longitude": 138.61648,
        "address": "Shop 8/121 Mawson Lakes Boulevard"
    },
    "708": {
        "name": "Subway Millicent",
        "latitude": -37.596283,
        "longitude": 140.355728,
        "address": "83 George Street "
    },
    "729": {
        "name": "Subway Mount Barker",
        "latitude": -35.06774,
        "longitude": 138.8635,
        "address": "Mt Barker Shop Centre \u2013 37 McLaren St\n"
    },
    "706": {
        "name": "Subway Mount Gambier Commercial Street East",
        "latitude": -37.829037,
        "longitude": 140.782623,
        "address": "57 Commercial St East"
    },
    "707": {
        "name": "Subway Mount Gambier Lakes Village",
        "latitude": -37.829361,
        "longitude": 140.776428,
        "address": "Shop 45, Lakes Village Shopping Centre, Helen Street"
    },
    "774": {
        "name": "Subway Salisbury",
        "latitude": -34.762274,
        "longitude": 138.643199,
        "address": "Cnr James & Gawler St "
    },
    "776": {
        "name": "Subway Whyalla Westlands",
        "latitude": -33.033832,
        "longitude": 137.532453,
        "address": "Tenancy 54/55 Westland Shopping Centre"
    },
    "391": {
        "name": "S24 Alice Springs",
        "latitude": -23.698711,
        "longitude": 133.878265,
        "address": "34 Railway Tce\nALICE SPRINGS NT 0870\nAUS"
    },
    "467": {
        "name": "S24 Balcatta",
        "latitude": -31.86261,
        "longitude": 115.8194,
        "address": "229 Balcatta Rd & Kenhelm St\nBALCATTA WA 6021\nAUS"
    },
    "456": {
        "name": "S24 Banana",
        "latitude": -24.47269,
        "longitude": 150.1281,
        "address": "Cnr Bowen & Charles Streets\nBANANA QLD 4702\nAUS"
    },
    "386": {
        "name": "S24 Broken Hill Blende Street",
        "latitude": -31.9646,
        "longitude": 141.4535,
        "address": "1 Blende Street"
    },
    "940": {
        "name": "S24 Bull Creek",
        "latitude": -32.05715,
        "longitude": 115.8657,
        "address": "Corner Parry & Wheatley Drive"
    },
    "457": {
        "name": "S24 Calliope",
        "latitude": -23.98238,
        "longitude": 151.2123,
        "address": "1906 Dawson Hwy\nCALLIOPE QLD 4680\nAUS"
    },
    "394": {
        "name": "S24 Casuarina",
        "latitude": -12.37372,
        "longitude": 130.8837,
        "address": "274 Trower Rd"
    },
    "942": {
        "name": "S24 Crystal Brook",
        "latitude": -32.01536,
        "longitude": 116.0431,
        "address": "78 Welshpool Road"
    },
    "395": {
        "name": "S24 Darwin City",
        "latitude": -12.4594212325518,
        "longitude": 130.837501504638,
        "address": "89-91 Smith Street"
    },
    "468": {
        "name": "S24 Diamond Creek",
        "latitude": -37.673622131347656,
        "longitude": 145.151611328125,
        "address": "52 Chute Street\nDIAMOND CREEK VIC 3089\nAUS"
    },
    "941": {
        "name": "S24 Forrestfield",
        "latitude": -31.99065,
        "longitude": 116.0001,
        "address": "155 Hale Road"
    },
    "466": {
        "name": "S24 Guildford",
        "latitude": -31.90118,
        "longitude": 115.9691,
        "address": "22 Johnson Street"
    },
    "462": {
        "name": "S24 Harvey",
        "latitude": -33.08058,
        "longitude": 115.8954,
        "address": "77 Uduc Road"
    },
    "400": {
        "name": "S24 Howard Springs",
        "latitude": -12.4966,
        "longitude": 131.0314,
        "address": "150 Whitewood Rd\n"
    },
    "433": {
        "name": "S24 Humpty Doo",
        "latitude": -12.57967,
        "longitude": 131.127,
        "address": "2/600 Arnhem Hwy"
    },
    "435": {
        "name": "S24 Jingili",
        "latitude": -12.39482,
        "longitude": 130.8779,
        "address": "231 mc Millans Rd"
    },
    "814": {
        "name": "S24 Kensington Gardens",
        "latitude": -34.91391,
        "longitude": 138.658196,
        "address": "408 Magill Rd & Glynburn Rd"
    },
    "437": {
        "name": "S24 Ludmilla",
        "latitude": -12.42687,
        "longitude": 130.8559,
        "address": "25 Bagot Rd\n"
    },
    "438": {
        "name": "S24 Malak",
        "latitude": -12.39659,
        "longitude": 130.9043,
        "address": "5102 Chambers Cresent"
    },
    "452": {
        "name": "S24 Marsden Park",
        "latitude": -33.69714,
        "longitude": 150.8328,
        "address": "365 Garfield Rd West & Richmond Rd\nMARSDEN PARK NSW 2765\nAUS"
    },
    "455": {
        "name": "S24 Maryborough",
        "latitude": -25.53081,
        "longitude": 152.6995,
        "address": "72 Walker Street\nMARYBOROUGH QLD 4650\nAUS"
    },
    "453": {
        "name": "S24 Monto",
        "latitude": -24.86532,
        "longitude": 151.1189,
        "address": "1 Flinders Street\nMONTO QLD 4630\nAUS"
    },
    "458": {
        "name": "S24 Mount Larcom",
        "latitude": -23.8065,
        "longitude": 150.9706,
        "address": "57017 Bruce Hwy\nMOUNT LARCOM QLD 4695\nAUS"
    },
    "439": {
        "name": "S24 Nightcliff",
        "latitude": -12.38777,
        "longitude": 130.852,
        "address": "26 Progress Drive"
    },
    "440": {
        "name": "S24 Ord River",
        "latitude": -15.77845,
        "longitude": 128.7401,
        "address": "5-7 Messmate Way\n"
    },
    "441": {
        "name": "S24 Palmerston",
        "latitude": -12.48198,
        "longitude": 130.9859,
        "address": "71 Chung Wah Terrace"
    },
    "944": {
        "name": "S24 Redcliffe",
        "latitude": -31.93038,
        "longitude": 115.9448,
        "address": "419 Great Eastern Highway"
    },
    "465": {
        "name": "S24 Sawyers Valley",
        "latitude": -31.90304,
        "longitude": 116.2071,
        "address": "96 Great Eastern Highway\nSAWYERS VALLEY WA 6074\nAUS"
    },
    "895": {
        "name": "S24 Tanunda",
        "latitude": -34.511488,
        "longitude": 138.975659,
        "address": "212-216 Murray Street"
    },
    "460": {
        "name": "S24 The Gap",
        "latitude": -27.44463,
        "longitude": 152.9524,
        "address": "983 Waterworks Rd\n"
    },
    "892": {
        "name": "S24 Toukley",
        "latitude": -33.26611,
        "longitude": 151.5486,
        "address": "356-358 Main Rd\n TOUKLEY NSW 2263\n AUS"
    },
    "829": {
        "name": "S24 Welland",
        "latitude": -34.896182,
        "longitude": 138.557427,
        "address": "522 Port Rd"
    },
    "461": {
        "name": "S24 Yanchep",
        "latitude": -31.5496,
        "longitude": 115.6589,
        "address": "7 Kakadu Rd, Cnr Yanchep Beach Rd\nYANCHEP WA 6035\nAUS"
    },
    "454": {
        "name": "S24 Zilzie",
        "latitude": -23.26758,
        "longitude": 150.8202,
        "address": "97 Hartley Street\nZILZIE QLD 4710\nAUS"
    }
}